[ {
  "id" : 2,
  "name" : "Притулок №2",
  "address" : "Адреса притулку №2",
  "contactNumber" : "+380 932 223 333",
  "description" : "Опис притулку 2",
  "city" : "Львів",
  "latitude" : 49.8397,
  "longitude" : 24.0297,
  "imageURL" : "https://lh5.googleusercontent.com/p/AF1QipPllRvUohZQGRjPkEKMCl3OrSrekrSmbInvX2MI=w408-h306-k-no",
  "email" : null,
  "card" : null,
  "paypal" : null,
  "iban" : null,
  "animals" : [ ]
}, {
  "id" : 3,
  "name" : "Притулок №3",
  "address" : "Адреса притулку №3",
  "contactNumber" : "+380 933 334 444",
  "description" : "Опис притулку 3",
  "city" : "Одеса",
  "latitude" : 46.4825,
  "longitude" : 30.7233,
  "imageURL" : "https://lh5.googleusercontent.com/p/AF1QipPllRvUohZQGRjPkEKMCl3OrSrekrSmbInvX2MI=w408-h306-k-no",
  "email" : null,
  "card" : null,
  "paypal" : null,
  "iban" : null,
  "animals" : [ ]
}, {
  "id" : 4,
  "name" : "Притулок №4",
  "address" : "Адреса притулку №4",
  "contactNumber" : "+380 934 445 555",
  "description" : "Опис притулку 4",
  "city" : "Харків",
  "latitude" : 49.9935,
  "longitude" : 36.2304,
  "imageURL" : "https://lh5.googleusercontent.com/p/AF1QipPllRvUohZQGRjPkEKMCl3OrSrekrSmbInvX2MI=w408-h306-k-no",
  "email" : null,
  "card" : null,
  "paypal" : null,
  "iban" : null,
  "animals" : [ ]
}, {
  "id" : 5,
  "name" : "Притулок №5",
  "address" : "Адреса притулку №5",
  "contactNumber" : "+380 935 556 666",
  "description" : "Опис притулку 5",
  "city" : "Дніпро",
  "latitude" : 48.4647,
  "longitude" : 35.0462,
  "imageURL" : "https://lh5.googleusercontent.com/p/AF1QipPllRvUohZQGRjPkEKMCl3OrSrekrSmbInvX2MI=w408-h306-k-no",
  "email" : null,
  "card" : null,
  "paypal" : null,
  "iban" : null,
  "animals" : [ ]
}, {
  "id" : 1,
  "name" : "Притулок №1",
  "address" : "Адреса притулку №1",
  "contactNumber" : "+380 931 112 222",
  "description" : "Опис притулку 1",
  "city" : "Київ",
  "latitude" : 50.4501,
  "longitude" : 30.5931,
  "imageURL" : null,
  "email" : null,
  "card" : null,
  "paypal" : null,
  "iban" : null,
  "animals" : [ {
    "id" : 1,
    "name" : "Барсик",
    "type" : "Кіт",
    "age" : 3,
    "size" : "Маленький",
    "description" : "Дуже грайливий котик",
    "sex" : "Хлопчик",
    "imageURL" : "https://example.com/image.jpg",
    "city" : "Київ",
    "shelterPhoneNumber" : "+380 931 112 222",
    "shelterName" : "Притулок №1",
    "vaccinated" : true,
    "sterilized" : false,
    "specialCare" : false
  } ]
}, {
  "id" : 6,
  "name" : "Притулок для тварин 'Добро'",
  "address" : "Київ, вул. Шевченка 10",
  "contactNumber" : "+380501234567",
  "description" : "Притулок для бездомних тварин. Ми надаємо допомогу та шукаємо нових господарів.",
  "city" : "Київ",
  "latitude" : 50.4501,
  "longitude" : 30.5032,
  "imageURL" : "https://example.com/image.jpg",
  "email" : "info@dobro.com",
  "card" : "1234567890",
  "paypal" : "paypal@dobro.com",
  "iban" : "UA12345678901234567890",
  "animals" : [ ]
} ]