[ {
  "id" : 2,
  "name" : "Притулок №2",
  "address" : "Адреса притулку №2",
  "contactNumber" : "+380 932 223 333",
  "description" : "Опис притулку 2",
  "city" : "Львів",
  "latitude" : 49.8397,
  "longitude" : 24.0297,
  "imageURL" : "https://lh5.googleusercontent.com/p/AF1QipPllRvUohZQGRjPkEKMCl3OrSrekrSmbInvX2MI=w408-h306-k-no",
  "email" : null,
  "card" : null,
  "paypal" : null,
  "iban" : null,
  "animals" : [ {
    "id" : 4,
    "name" : "цук",
    "type" : "іва",
    "age" : 2,
    "size" : "іва",
    "description" : "цук",
    "sex" : "Хлопчик",
    "imageURL" : "іва",
    "city" : "Львів",
    "shelterPhoneNumber" : "+380 932 223 333",
    "shelterName" : "Притулок №2",
    "vaccinated" : false,
    "sterilized" : false,
    "specialCare" : false
  } ]
}, {
  "id" : 3,
  "name" : "Притулок №3",
  "address" : "Адреса притулку №3",
  "contactNumber" : "+380 933 334 444",
  "description" : "Опис притулку 3",
  "city" : "Одеса",
  "latitude" : 46.4825,
  "longitude" : 30.7233,
  "imageURL" : "https://lh5.googleusercontent.com/p/AF1QipPllRvUohZQGRjPkEKMCl3OrSrekrSmbInvX2MI=w408-h306-k-no",
  "email" : null,
  "card" : null,
  "paypal" : null,
  "iban" : null,
  "animals" : [ ]
}, {
  "id" : 4,
  "name" : "Притулок №4",
  "address" : "Адреса притулку №4",
  "contactNumber" : "+380 934 445 555",
  "description" : "Опис притулку 4",
  "city" : "Харків",
  "latitude" : 49.9935,
  "longitude" : 36.2304,
  "imageURL" : "https://lh5.googleusercontent.com/p/AF1QipPllRvUohZQGRjPkEKMCl3OrSrekrSmbInvX2MI=w408-h306-k-no",
  "email" : null,
  "card" : null,
  "paypal" : null,
  "iban" : null,
  "animals" : [ ]
}, {
  "id" : 5,
  "name" : "Притулок №5",
  "address" : "Адреса притулку №5",
  "contactNumber" : "+380 935 556 666",
  "description" : "Опис притулку 5",
  "city" : "Дніпро",
  "latitude" : 48.4647,
  "longitude" : 35.0462,
  "imageURL" : "https://lh5.googleusercontent.com/p/AF1QipPllRvUohZQGRjPkEKMCl3OrSrekrSmbInvX2MI=w408-h306-k-no",
  "email" : null,
  "card" : null,
  "paypal" : null,
  "iban" : null,
  "animals" : [ ]
}, {
  "id" : 1,
  "name" : "Притулок №1",
  "address" : "Адреса притулку №1",
  "contactNumber" : "+380 931 112 222",
  "description" : "Опис притулку 1",
  "city" : "Київ",
  "latitude" : 50.4501,
  "longitude" : 30.5931,
  "imageURL" : null,
  "email" : null,
  "card" : null,
  "paypal" : null,
  "iban" : null,
  "animals" : [ ]
}, {
  "id" : 8,
  "name" : "Sun",
  "address" : "Бровари",
  "contactNumber" : "+380 931 112 222",
  "description" : "Тільки",
  "city" : "Бровари",
  "latitude" : 50.511389,
  "longitude" : 30.790278,
  "imageURL" : "зщшгнеку",
  "email" : "@@@@",
  "card" : "2",
  "paypal" : "2",
  "iban" : "2",
  "animals" : [ ]
} ]