[ {
  "id" : 1,
  "name" : "Добрий Дім",
  "address" : "вул. Лісова, 15",
  "contactNumber" : "380671234567",
  "description" : "Притулок для бездомних тварин",
  "city" : "Київ",
  "latitude" : 50.4501,
  "longitude" : 30.5234,
  "imageURL" : "",
  "email" : "dobrydim@gmail.com",
  "card" : "5375411234567890",
  "paypal" : "paypal.me/dobrydim",
  "iban" : "UA123456789012345678901234567",
  "animals" : [ {
    "id" : 1,
    "name" : "Барсик",
    "type" : "Кіт",
    "age" : 2,
    "size" : "Середній",
    "description" : "Лагідний та грайливий кіт, любить увагу.",
    "sex" : "Хлопчик",
    "imageURL" : "https://example.com/image.jpg",
    "city" : "Київ",
    "shelterPhoneNumber" : "380671234567",
    "shelterName" : "Добрий Дім",
    "vaccinated" : true,
    "sterilized" : true,
    "specialCare" : false
  } ]
}, {
  "id" : 2,
  "name" : "Хатіко",
  "address" : "вул. Галицька, 22",
  "contactNumber" : "380673456789",
  "description" : "Допомога та реабілітація тварин",
  "city" : "Львів",
  "latitude" : 49.8397,
  "longitude" : 24.0316,
  "imageURL" : "",
  "email" : "hatiko@gmail.com",
  "card" : "4149499122334455",
  "paypal" : "paypal.me/hatiko",
  "iban" : "UA098765432109876543210987654",
  "animals" : [ ]
}, {
  "id" : 3,
  "name" : "Тварини в безпеці",
  "address" : "вул. Дерибасівська, 10",
  "contactNumber" : "380676543210",
  "description" : "Центр допомоги тваринам",
  "city" : "Одеса",
  "latitude" : 46.4825,
  "longitude" : 30.7326,
  "imageURL" : "",
  "email" : "safeanimals@gmail.com",
  "card" : "5168755466778899",
  "paypal" : "paypal.me/safeanimals",
  "iban" : "UA112233445566778899001122334",
  "animals" : [ ]
}, {
  "id" : 4,
  "name" : "Друг",
  "address" : "вул. Центральна, 33",
  "contactNumber" : "380671112233",
  "description" : "Притулок для котів і собак",
  "city" : "Дніпро",
  "latitude" : 48.4647,
  "longitude" : 35.045,
  "imageURL" : "",
  "email" : "drug@gmail.com",
  "card" : "4731219987654321",
  "paypal" : "paypal.me/drug",
  "iban" : "UA556677889900112233445566778",
  "animals" : [ ]
}, {
  "id" : 5,
  "name" : "Щасливий хвіст",
  "address" : "вул. Соборна, 5",
  "contactNumber" : "380679876543",
  "description" : "Захист та догляд за тваринами",
  "city" : "Харків",
  "latitude" : 50.0044,
  "longitude" : 36.2304,
  "imageURL" : "",
  "email" : "happytail@gmail.com",
  "card" : "5363291299887766",
  "paypal" : "paypal.me/happytail",
  "iban" : "\tUA223344556677889900112233445",
  "animals" : [ ]
} ]